{
  "type": "FeatureCollection",
  "features": [
    { 
      "geometry": {
        "type": "Point",
        "coordinates": [52.832626, -51.07875]
      }, 
      "type": "Feature",
      "properties": { 
        "iconurl": "",
        "iconrotate": "90.0",
        "popupContent": "Amazing information about fixed_supply_crate will be found here!"
      }, 
      "name": "cpname_fools_road_skirmish32_fort1_crate"
    },
    { 
      "geometry": {
        "type": "Point",
        "coordinates": [51.67975, -55.930252]
      }, 
      "type": "Feature",
      "properties": { 
        "iconurl": "icons/vehicles_map/mini_atgun.png",
        "iconrotate": "180.0",
        "popupContent": "Amazing information about zis3 will be found here!"
      }, 
      "name": "cpname_fools_road_skirmish32_fort1_zis1"
    },
    { 
      "geometry": {
        "type": "Point",
        "coordinates": [54.38775, -52.33938]
      }, 
      "type": "Feature",
      "properties": { 
        "iconurl": "icons/vehicles_map/mini_atgun.png",
        "iconrotate": "90.0",
        "popupContent": "Amazing information about zis3 will be found here!"
      }, 
      "name": "cpname_fools_road_skirmish32_fort1_zis2"
    },
    { 
      "geometry": {
        "type": "Point",
        "coordinates": [78.2715, -9.561501]
      }, 
      "type": "Feature",
      "properties": { 
        "iconurl": "",
        "iconrotate": "0.0",
        "popupContent": "Amazing information about fixed_supply_crate will be found here!"
      }, 
      "name": "cpname_fools_road_skirmish32_brit1_crate"
    },
    { 
      "geometry": {
        "type": "Point",
        "coordinates": [96.1535, -61.110374]
      }, 
      "type": "Feature",
      "properties": { 
        "iconurl": "",
        "iconrotate": "0.0",
        "popupContent": "Amazing information about fixed_supply_crate will be found here!"
      }, 
      "name": "cpname_fools_road_skirmish32_brit2_crate"
    },
    { 
      "geometry": {
        "type": "Point",
        "coordinates": [10.701248, -92.85988]
      }, 
      "type": "Feature",
      "properties": { 
        "iconurl": "",
        "iconrotate": "0.0",
        "popupContent": "Amazing information about fixed_supply_crate will be found here!"
      }, 
      "name": "cpname_fools_road_skirmish32_brit3_crate"
    },
    { 
      "geometry": {
        "type": "Point",
        "coordinates": [51.390373, -51.55388]
      }, 
      "type": "Feature",
      "properties": { 
        "iconurl": "",
        "iconrotate": "0.0",
        "popupContent": "Amazing information about rallypoint_chinsurgent_placeable will be found here!"
      }, 
      "name": "cpname_fools_road_skirmish32_fort1_spawn1"
    },
    { 
      "geometry": {
        "type": "Point",
        "coordinates": [53.3925, -49.763252]
      }, 
      "type": "Feature",
      "properties": { 
        "iconurl": "",
        "iconrotate": "0.0",
        "popupContent": "Amazing information about rallypoint_chinsurgent_placeable will be found here!"
      }, 
      "name": "cpname_fools_road_skirmish32_fort1_spawn2"
    },
    { 
      "geometry": {
        "type": "Point",
        "coordinates": [51.39863, -55.235374]
      }, 
      "type": "Feature",
      "properties": { 
        "iconurl": "",
        "iconrotate": "0.0",
        "popupContent": "Amazing information about rallypoint_chinsurgent_placeable will be found here!"
      }, 
      "name": "cpname_fools_road_skirmish32_fort1_spawn3"
    },
    { 
      "geometry": {
        "type": "Point",
        "coordinates": [22.272247, -32.190002]
      }, 
      "type": "Feature",
      "properties": { 
        "iconurl": "",
        "iconrotate": "-44.305",
        "popupContent": "Amazing information about fixed_supply_crate will be found here!"
      }, 
      "name": "cpname_fools_road_skirmish32_militiamain_crate"
    }
  ]
}